
[
  {"name":"La Cevichería del Puerto","district":"Miraflores","latitude":-12.1219,"longitude":-77.0306,
   "dishes":["ceviche clásico de pescado","tiradito de lenguado","leche de tigre","causa rellena con pollo","arroz con mariscos","chicharrón de calamar","papa a la huancaína"]},
  {"name":"El Rincón Criollo","district":"Barranco","latitude":-12.1497,"longitude":-77.0222,
   "dishes":["lomo saltado","aji de gallina","seco de res con frijoles","carapulcra con sopa seca","tacu tacu con bistec","ensalada criolla","mazamorra morada"]},
  {"name":"Tradiciones del Sur","district":"Surco","latitude":-12.1535,"longitude":-77.0006,
   "dishes":["rocoto relleno con carne","causa de pallares","sopa a la minuta","arroz con leche","picarones con miel de chancaca","chicharrón de cerdo","tallarín saltado con pollo"]},
  {"name":"Nikkei & Mar","district":"San Isidro","latitude":-12.0989,"longitude":-77.0350,
   "dishes":["ceviche nikkei","tiradito nikkei con salsa de ají amarillo","gyoza de langostinos","lomo a la soya con arroz","ensalada de algas wakame","maki de pepino y palta","sopa miso con tofu"]},
  {"name":"Raíces Verdes","district":"Miraflores","latitude":-12.1185,"longitude":-77.0340,
   "dishes":["quinoa salteada con verduras","causa vegana de camote","ceviche de champiñones y palmito","tacu tacu de pallares","ensalada de kale con quinoa y palta","crema de espinacas con pan artesanal","mousse de lúcuma vegano"]},
  {"name":"La Picantería de Lima","district":"Cercado de Lima","latitude":-12.0500,"longitude":-77.0350,
   "dishes":["cau cau de mondongo","papa a la huancaína","sangrecita con arroz","seco de cabrito","chicharrón de chancho","pepián de choclo"]},
  {"name":"Puerto Marisco","district":"Chorrillos","latitude":-12.1700,"longitude":-77.0210,
   "dishes":["parihuela de mariscos","arroz con leche de mar","sudado de corvina","ceviche mixto de mariscos","chupe de camarones","conchitas a la parmesana","pulpo al olivo"]},
  {"name":"Don Lucho Tradición","district":"La Victoria","latitude":-12.0697,"longitude":-77.0231,
   "dishes":["lomo saltado con papas fritas","aji de gallina con arroz","papa rellena con carne","arroz con leche","picarones con miel","ensalada verde con limón"]},
  {"name":"Punto Fusión","district":"San Borja","latitude":-12.1089,"longitude":-76.9994,
   "dishes":["quinoa con verduras salteadas","ensalada mediterránea con feta","pasta integral con salsa de tomate","risotto de champiñones","pollo a las finas hierbas","brownie vegano de chocolate"]},
  {"name":"Los Compadres","district":"Jesús María","latitude":-12.0717,"longitude":-77.0506,
   "dishes":["causa limeña de atún","arroz con pato","estofado de res","frejoles con seco","sopa seca con carapulcra","juanes de gallina","ceviche de conchas negras"]},
  {"name":"Sabores Peruanos","district":"Lince","latitude":-12.0833,"longitude":-77.0428,
   "dishes":["papa rellena de lomo saltado","seco de pato a la chiclayana","causa de pollo con palta","juane con cecina y tacacho","empanadas de carne","anticuchos de corazón","chicha morada"]},
  {"name":"Pescados Capitales","district":"Miraflores","latitude":-12.1180,"longitude":-77.0345,
   "dishes":["pulpo a la parrilla","tiradito a los tres ajíes","conchas de abanico gratinadas","arroz chaufa de mariscos","jalea mixta","ceviche carretillero","parihuela de mariscos"]},
  {"name":"Astrid & Gastón","district":"San Isidro","latitude":-12.0980,"longitude":-77.0340,
   "dishes":["ceviche de autor","anticuchos de pulpo con chimichurri","cochinillo confitado","pato confitado con puré de lucúma","risotto de quinua y queso paria","ají de gallina moderno","chicha morada espumosa"]},
  {"name":"Central Restaurante","district":"Barranco","latitude":-12.1485,"longitude":-77.0210,
   "dishes":["pesca del día con tuberculos andinos","cordero de los andes","conchas de abanico con algas","cacao de altura con café","humitas de choclo con queso fresco","olluco con carne","quinua al pisco"]},
  {"name":"Madam Tusan","district":"San Isidro","latitude":-12.0995,"longitude":-77.0360,
   "dishes":["arroz chaufa aeropuerto","wantán frito","tallarín saltado con pollo","pollo tipakay","kam lu wantán","pato asado","sopa wantán"]},
  {"name":"La Rosa Náutica","district":"Miraflores","latitude":-12.1280,"longitude":-77.0280,
   "dishes":["langostinos a la parrilla","corvina a la plancha","pulpo al olivo","tiradito tradicional","arroz con mariscos","papa a la huancaína","ceviche de lenguado"]},
  {"name":"Barra Chalaca","district":"Miraflores","latitude":-12.1200,"longitude":-77.0310,
   "dishes":["ceviche clásico","jalea de mariscos","chicharrón de pescado","arroz con mariscos","tiradito cremoso","causa de atún","leche de tigre"]},
  {"name":"Isolina Taberna Peruana","district":"Barranco","latitude":-12.1490,"longitude":-77.0225,
   "dishes":["cau cau","seco de asado con frijoles","sangrecita","papa rellena","tacu tacu con lomo apanado","mondonguito a la italiana","sopa a la minuta"]},
  {"name":"Maido","district":"Miraflores","latitude":-12.1225,"longitude":-77.0300,
   "dishes":["nigiri de toro","sushi nikkei","gyoza de wagyu","pulpo anticuchero","tempura de langostinos","sashimi de salmón","yakitori de pollo"]}
]
