[
  {
    "name": "El Jardín Verde",
    "address": "Av. Benavides 1234, Miraflores, Lima",
    "lat": -12.1219,
    "lon": -77.0169,
    "dishes": [
      "Ensalada de quinoa con aguacate",
      "Lomo saltado de tofu",
      "Tacu tacu vegano",
      "Ceviche de champiñones",
      "Arroz con leche de coco",
      "Anticucho de res"
    ]
  },
  {
    "name": "Raíces Naturales",
    "address": "Calle Las Flores 567, San Isidro, Lima",
    "lat": -12.1100,
    "lon": -77.0350,
    "dishes": [
      "Sopa de lentejas con verduras",
      "Burger de garbanzo",
      "Papa a la huancaína vegana",
      "Pollo a la brasa",
      "Causa rellena de atún",
      "Torta de zanahoria sin huevo"
    ]
  },
  {
    "name": "Sabores del Campo",
    "address": "Jr. Petit Thouars 890, Lima Centro",
    "lat": -12.0650,
    "lon": -77.0375,
    "dishes": [
      "Caldo de gallina",
      "Tamal vegetariano",
      "Mazamorra morada",
      "Arroz con leche",
      "Chicharrón de cerdo",
      "Guiso de pallares con queso"
    ]
  },
  {
    "name": "Verde Fusión",
    "address": "Av. Larco 456, Miraflores, Lima",
    "lat": -12.1265,
    "lon": -77.0283,
    "dishes": [
      "Bowl de açaí con granola",
      "Wrap de falafel con hummus",
      "Poke de tofu y edamame",
      "Smoothie de espinaca y mango",
      "Sándwich de pollo a la plancha",
      "Cheesecake de cajú"
    ]
  },
  {
    "name": "La Huerta Criolla",
    "address": "Calle Ricardo Palma 321, Miraflores, Lima",
    "lat": -12.1180,
    "lon": -77.0300,
    "dishes": [
      "Seco de res con frijoles",
      "Ají de gallina clásico",
      "Ensalada de betarraga con queso fresco",
      "Tortilla española de papas",
      "Croquetas de espinaca",
      "Bistec a lo pobre"
    ]
  },
  {
    "name": "Brotes & Semillas",
    "address": "Av. Angamos 789, Surquillo, Lima",
    "lat": -12.1102,
    "lon": -77.0200,
    "dishes": [
      "Tostadas de aguacate con semillas de chía",
      "Wok de verduras con fideos de arroz",
      "Leche de almendras casera",
      "Panqueques de avena con plátano",
      "Hamburguesa de lentejas",
      "Smoothie bowl de berries"
    ]
  }
]
